[
    {
        "visited": false,
        "address": "1501 E St, San Diego, CA 92101",
        "coordinates": {
            "lat": 32.7144596,
            "lng": -117.1501656
        },
        "label": "10 Barrel Brewing Co."
    },
    {
        "visited": false,
        "address": "8680 Miralani Drive #123, San Diego, CA 92126",
        "coordinates": {
            "lat": 32.8966532,
            "lng": -117.1372753
        },
        "label": "2Kids Brewing Co."
    },
    {
        "visited": true,
        "address": "8555 Production Avenue, Suite A, San Diego, CA 92121",
        "coordinates": {
            "lat": 32.8806222,
            "lng": -117.1652732
        },
        "label": "32 North Brewing"
    },
    {
        "visited": false,
        "address": "16990 Via Tazon, Suite 124, San Diego, CA 92127",
        "coordinates": {
            "lat": 33.0236355,
            "lng": -117.0859077
        },
        "label": "Abnormal Beer Company"
    },
    {
        "visited": false,
        "address": "1795 Hancock Street, Suite P1, San Diego, CA 92110",
        "coordinates": {
            "lat": 32.7422734,
            "lng": -117.184648
        },
        "label": "Acoustic Ales Brewing Experiment"
    },
    {
        "visited": false,
        "address": "9990 AleSmith Ct., San Diego, CA 92126",
        "coordinates": {
            "lat": 32.8882176,
            "lng": -117.149821
        },
        "label": "AleSmith Brewing Company"
    },
    {
        "visited": false,
        "address": "8680 Miralani Dr, San Diego, CA 92121",
        "coordinates": {
            "lat": 32.8966532,
            "lng": -117.1372753
        },
        "label": "Align Brewing Co."
    },
    {
        "visited": false,
        "address": "2351 Alpine Boulevard, Alpine CA 91901",
        "coordinates": {
            "lat": 32.8351688,
            "lng": -116.7626655
        },
        "label": "Alpine Beer Company"
    },
    {
        "visited": false,
        "address": "4150 Mission Blvd #208, San Diego, CA 92109",
        "coordinates": {
            "lat": 32.791766,
            "lng": -117.2543247
        },
        "label": "Amplified Ale Works"
    },
    {
        "visited": false,
        "address": "9030 Kenamar Drive, Unit 309, San Diego, CA 92121",
        "coordinates": {
            "lat": 32.8866311,
            "lng": -117.1571274
        },
        "label": "Amplified Ale Works"
    },
    {
        "visited": false,
        "address": "5621 Palmer Way, Suite C, Carlsbad, CA 92010",
        "coordinates": {
            "lat": 33.1402104,
            "lng": -117.2739244
        },
        "label": "Arcana Brewing Co."
    },
    {
        "visited": false,
        "address": "3416 Adams Avenue, San Diego, CA 92116",
        "coordinates": {
            "lat": 32.763498,
            "lng": -117.1203007
        },
        "label": "Automatic Brewing Company"
    },
    {
        "visited": false,
        "address": "2330 La Mirada Dr. Suite 300, Vista CA 92081",
        "coordinates": {
            "lat": 33.149647,
            "lng": -117.23004
        },
        "label": "Aztec Brewing Company"
    },
    {
        "visited": false,
        "address": "15 Main Street, Suite #100, Vista, CA 92084",
        "coordinates": {
            "lat": 33.200008,
            "lng": -117.244742
        },
        "label": "Back Street Brewery"
    },
    {
        "visited": false,
        "address": "601 South Coast Highway, Oceanside CA 92054",
        "coordinates": {
            "lat": 33.1893679,
            "lng": -117.374349
        },
        "label": "Bagby Beer Company"
    },
    {
        "visited": false,
        "address": "10051 Old Grove Road, San Diego, CA 92131",
        "coordinates": {
            "lat": 32.8985252,
            "lng": -117.1109407
        },
        "label": "Ballast Point Brewing & Spirits - Scripps Ranch"
    },
    {
        "visited": false,
        "address": "5401 Linda Vista Rd., Suite 406, San Diego, CA 92110",
        "coordinates": {
            "lat": 32.7667161,
            "lng": -117.1952639
        },
        "label": "Ballast Point Brewing & Spirits - Home Brew Mart"
    },
    {
        "visited": false,
        "address": "2215 India Street, San Diego, CA 92101",
        "coordinates": {
            "lat": 32.7276346,
            "lng": -117.1697179
        },
        "label": "Ballast Point Brewing & Spirits - Little Italy"
    },
    {
        "visited": false,
        "address": "2850 El Cajon Boulevard Ste 3, San Diego, CA 92104",
        "coordinates": {
            "lat": 32.7555903,
            "lng": -117.1323809
        },
        "label": "Barn Brewery"
    },
    {
        "visited": false,
        "address": "2575 Pioneer Avenue #104, Vista, CA 92081",
        "coordinates": {
            "lat": 33.1488745,
            "lng": -117.2215877
        },
        "label": "Barrel Harbor"
    },
    {
        "visited": false,
        "address": "8125 Ronson Rd, Unit F, San Diego, CA 92111",
        "coordinates": {
            "lat": 32.8289272,
            "lng": -117.1479941
        },
        "label": "Barrel Rescue"
    },
    {
        "visited": false,
        "address": "2870 Scott St, Vista, CA 92081",
        "coordinates": {
            "lat": 33.14042209999999,
            "lng": -117.227523
        },
        "label": "Battlemage Brewing Company"
    },
    {
        "visited": false,
        "address": "688 Marsat Court Suite B, Chula Vista, CA 91911",
        "coordinates": {
            "lat": 32.6011946,
            "lng": -117.0832236
        },
        "label": "Bay Bridge Brewing"
    },
    {
        "visited": false,
        "address": "3760 Hancock St, San Diego, CA 92110",
        "coordinates": {
            "lat": 32.7580336,
            "lng": -117.2118028
        },
        "label": "Bay City Brewing"
    },
    {
        "visited": false,
        "address": "1213 S. Santa Fe Avenue, Vista, CA 92083",
        "coordinates": {
            "lat": 33.1882421,
            "lng": -117.2263263
        },
        "label": "Bear Roots Brewing Co."
    },
    {
        "visited": false,
        "address": "980 Park Center Drive, Suite A, Vista, CA 92081",
        "coordinates": {
            "lat": 33.1450194,
            "lng": -117.2296725
        },
        "label": "Belching Beaver Brewery"
    },
    {
        "visited": false,
        "address": "1334 Rocky Point Dr, Oceanside, CA 92056",
        "coordinates": {
            "lat": 33.212524,
            "lng": -117.2915874
        },
        "label": "Belching Beaver Brewery"
    },
    {
        "visited": false,
        "address": "302 East Broadway, Vista, CA 92084",
        "coordinates": {
            "lat": 33.2021206,
            "lng": -117.2410235
        },
        "label": "Belching Beaver Brewery Tavern & Grill"
    },
    {
        "visited": false,
        "address": "6190 Fairmount ave. Suite G, San Diego, CA 92120",
        "coordinates": {
            "lat": 32.7872447,
            "lng": -117.1020698
        },
        "label": "Benchmark Brewing"
    },
    {
        "visited": false,
        "address": "4170 Morena Blvd, San Diego, CA 92117",
        "coordinates": {
            "lat": 32.8157824,
            "lng": -117.2201636
        },
        "label": "Bitter Brothers Brewing"
    },
    {
        "visited": false,
        "address": "2550 Jason Ct, Oceanside, CA 92056",
        "coordinates": {
            "lat": 33.2156117,
            "lng": -117.266739
        },
        "label": "Black Plague Brewing"
    },
    {
        "visited": false,
        "address": "10960 Wheatlands Avenue #101, Santee, CA 92071",
        "coordinates": {
            "lat": 32.8466231,
            "lng": -116.9583633
        },
        "label": "BNS Brewing & Distilling"
    },
    {
        "visited": false,
        "address": "8179 Center Street, La Mesa, CA 91942",
        "coordinates": {
            "lat": 32.7718969,
            "lng": -117.0205938
        },
        "label": "Bolt Brewing Co."
    },
    {
        "visited": false,
        "address": "2545 Progress St. Suite D, Vista, CA 92081",
        "coordinates": {
            "lat": 33.148182,
            "lng": -117.2181424
        },
        "label": "Booze Brothers Brewing Co."
    },
    {
        "visited": false,
        "address": "8684 Avenida de la Fuente Suite 8, San Diego, CA 92154",
        "coordinates": {
            "lat": 32.5566848,
            "lng": -116.9568186
        },
        "label": "Border X Brewing"
    },
    {
        "visited": false,
        "address": "101 N. Coast Highway, Oceanside, CA 92054",
        "coordinates": {
            "lat": 33.1950924,
            "lng": -117.3791266
        },
        "label": "Breakwater Brewing Company"
    },
    {
        "visited": false,
        "address": "6350 Yarrow Dr, Suite C, Carlsbad, CA 92011",
        "coordinates": {
            "lat": 33.1197823,
            "lng": -117.272939
        },
        "label": "Burgeon Beer Company"
    },
    {
        "visited": false,
        "address": "785 Vernon Way, El Cajon, CA 92020",
        "coordinates": {
            "lat": 32.8117415,
            "lng": -116.9724106
        },
        "label": "Burning Beard Brewing Company"
    },
    {
        "visited": false,
        "address": "4202 Sorrento Valley BLVD, Suite L&M, San Diego, CA 92121",
        "coordinates": {
            "lat": 32.9049956,
            "lng": -117.2150299
        },
        "label": "California Wild Ales"
    },
    {
        "visited": false,
        "address": "2330 Main St, Suite C, Ramona, CA 92065",
        "coordinates": {
            "lat": 33.027784,
            "lng": -116.8891698
        },
        "label": "ChuckAlek Independent Brewers"
    },
    {
        "visited": false,
        "address": "294 3rd Ave, Chula Vista, CA 91910",
        "coordinates": {
            "lat": 32.6415632,
            "lng": -117.0803328
        },
        "label": "Chula Vista Brewery"
    },
    {
        "visited": false,
        "address": "7292 Opportunity Rd, San Diego, CA 92111",
        "coordinates": {
            "lat": 32.8257279,
            "lng": -117.1607576
        },
        "label": "Circle 9 Brewing"
    },
    {
        "visited": false,
        "address": "170 Orange Avenue, Coronado, CA 92118",
        "coordinates": {
            "lat": 32.6977694,
            "lng": -117.1732329
        },
        "label": "Coronado Brewing Company"
    },
    {
        "visited": false,
        "address": "1205 Knoxville Street, San Diego, CA 92110",
        "coordinates": {
            "lat": 32.7718721,
            "lng": -117.2045788
        },
        "label": "Coronado Brewing Company"
    },
    {
        "visited": false,
        "address": "7705 Convoy Court, San Diego, CA 92111",
        "coordinates": {
            "lat": 32.8345474,
            "lng": -117.1544514
        },
        "label": "Council Brewing Co."
    },
    {
        "visited": false,
        "address": "111 S. Cedros Ave Suite 200, Solana Beach, CA 92075",
        "coordinates": {
            "lat": 32.9915796,
            "lng": -117.2707116
        },
        "label": "Culture Brewing Co."
    },
    {
        "visited": false,
        "address": "2719 Loker Avenue West Suite D, Carlsbad, CA, 92010",
        "coordinates": {
            "lat": 33.1326935,
            "lng": -117.2585179
        },
        "label": "Culver Beer Co."
    },
    {
        "visited": false,
        "address": "5328 Banks Street, Ste A, San Diego, CA 92110",
        "coordinates": {
            "lat": 32.7643879,
            "lng": -117.1989393
        },
        "label": "Deft Brewing"
    },
    {
        "visited": false,
        "address": "7408 Trade St, San Diego, California 92121",
        "coordinates": {
            "lat": 32.890339,
            "lng": -117.162898
        },
        "label": "Division 23 Brewing"
    },
    {
        "visited": false,
        "address": "1241 Linda Vista Drive, San Marcos, CA 92078",
        "coordinates": {
            "lat": 33.1369175,
            "lng": -117.1934247
        },
        "label": "Dos Desperados Brewing"
    },
    {
        "visited": true,
        "address": "8920 Kenamar Dr. Suite #210, San Diego, CA 92121",
        "coordinates": {
            "lat": 32.8853381,
            "lng": -117.1564712
        },
        "label": "Duck Foot Brewing Co."
    },
    {
        "visited": false,
        "address": "2449 Cades, Suite D, Vista, CA 92081",
        "coordinates": {
            "lat": 33.1537956,
            "lng": -117.2241602
        },
        "label": "Ebullition Brew Works"
    },
    {
        "visited": false,
        "address": "3052 El Cajon Blvd., Suite C San Diego, CA 92104",
        "coordinates": {
            "lat": 32.7555796,
            "lng": -117.1287502
        },
        "label": "Eppig Brewing"
    },
    {
        "visited": false,
        "address": "649 Rock Springs Road, Escondido, CA 92025",
        "coordinates": {
            "lat": 33.124577,
            "lng": -117.0970089
        },
        "label": "Escondido Brewing Company"
    },
    {
        "visited": false,
        "address": "4532 30th Street, San Diego, CA 92104",
        "coordinates": {
            "lat": 32.7598158,
            "lng": -117.1304601
        },
        "label": "Fall Brewing Co."
    },
    {
        "visited": false,
        "address": "136 N Main Ave, Fallbrook, CA",
        "coordinates": {
            "lat": 33.3827003,
            "lng": -117.2515165
        },
        "label": "Fallbrook Brewing Company"
    },
    {
        "visited": false,
        "address": "9962 Prospect Ave, Santee, CA 92071",
        "coordinates": {
            "lat": 32.8319916,
            "lng": -116.9796314
        },
        "label": "Finest Made Ales"
    },
    {
        "visited": false,
        "address": "5010 Mission Center Road, San Diego, CA 92108",
        "coordinates": {
            "lat": 32.7670751,
            "lng": -117.1539108
        },
        "label": "Gordon Biersch Brewery Restaurant"
    },
    {
        "visited": true,
        "address": "6550 Mira Mesa Blvd., San Diego, CA 92121",
        "coordinates": {
            "lat": 32.9071098,
            "lng": -117.1777588
        },
        "label": "Green Flash Brewing Co."
    },
    {
        "visited": false,
        "address": "6304 Riverdale Street, San Diego, CA 92120",
        "coordinates": {
            "lat": 32.7889952,
            "lng": -117.0997872
        },
        "label": "Groundswell Brewing Co."
    },
    {
        "visited": false,
        "address": "10151 Prospect Avenue, Santee, CA 92071",
        "coordinates": {
            "lat": 32.8307147,
            "lng": -116.9766879
        },
        "label": "Groundswell Brewing Co."
    },
    {
        "visited": false,
        "address": "5650 El Camino Real, Carlsbad, CA 92008",
        "coordinates": {
            "lat": 33.1395403,
            "lng": -117.2746495
        },
        "label": "Guadalupe Brewery"
    },
    {
        "visited": false,
        "address": "903 Island Avenue, San Diego, CA 92101",
        "coordinates": {
            "lat": 32.7102641,
            "lng": -117.1562711
        },
        "label": "Half Door Brewing Co."
    },
    {
        "visited": false,
        "address": "5640 Kearny Mesa Rd, Suite C/N, San Diego, CA 92111",
        "coordinates": {
            "lat": 32.8373203,
            "lng": -117.1390676
        },
        "label": "Helm's Brewing"
    },
    {
        "visited": false,
        "address": "8101 Commercial Street, La Mesa, CA 91942",
        "coordinates": {
            "lat": 32.77201820000001,
            "lng": -117.0233413
        },
        "label": "Helix Brewing Co."
    },
    {
        "visited": false,
        "address": "1458 University Ave, San Diego, CA 92103",
        "coordinates": {
            "lat": 32.749106,
            "lng": -117.1499114
        },
        "label": "Hillcrest Brewing Company"
    },
    {
        "visited": false,
        "address": "2911 El Cajon Boulevard, Space #2, San Diego, CA 92104",
        "coordinates": {
            "lat": 32.755089,
            "lng": -117.130994
        },
        "label": "Home Brewing Co."
    },
    {
        "visited": false,
        "address": "Oceanside, CA 92154",
        "coordinates": {
            "lat": 32.5758926,
            "lng": -117.07049
        },
        "label": "Horus Aged Ales"
    },
    {
        "visited": false,
        "address": "2123 Industrial Ct, Vista, CA 92081",
        "coordinates": {
            "lat": 33.169495,
            "lng": -117.220383
        },
        "label": "Indian Joe Brewing"
    },
    {
        "visited": false,
        "address": "9835 Carroll Centre, Suite 108, San Diego, CA 92126",
        "coordinates": {
            "lat": 32.8987471,
            "lng": -117.1206384
        },
        "label": "Intergalactic Brewing Co"
    },
    {
        "visited": false,
        "address": "1305 Hot Spring Way #101, Vista, CA 92081",
        "coordinates": {
            "lat": 33.1455504,
            "lng": -117.2386297
        },
        "label": "Iron Fist Brewing Company"
    },
    {
        "visited": false,
        "address": "800 West Grand Ave, Escondido, CA 92025",
        "coordinates": {
            "lat": 33.1174244,
            "lng": -117.0917736
        },
        "label": "Jacked Up Brewing"
    },
    {
        "visited": false,
        "address": "Jamul, CA 91935",
        "coordinates": {
            "lat": 32.7169988,
            "lng": -116.8761347
        },
        "label": "Jamul Brewing Co."
    },
    {
        "visited": false,
        "address": "2315 Main Street, Julian, CA 92036",
        "coordinates": {
            "lat": 33.0791279,
            "lng": -116.6041292
        },
        "label": "Julian Brewing Company"
    },
    {
        "visited": false,
        "address": "10448 Reserve Drive, San Diego, CA 92127",
        "coordinates": {
            "lat": 33.021177,
            "lng": -117.113632
        },
        "label": "Karl Strauss 4S Ranch"
    },
    {
        "visited": false,
        "address": "5801 Armada Drive, Carlsbad, CA 92008",
        "coordinates": {
            "lat": 33.1244064,
            "lng": -117.3140153
        },
        "label": "Karl Strauss Carlsbad"
    },
    {
        "visited": false,
        "address": "1157 Columbia Street, San Diego, CA 92101",
        "coordinates": {
            "lat": 32.7174547,
            "lng": -117.1670758
        },
        "label": "Karl Strauss Downtown"
    },
    {
        "visited": false,
        "address": "1044 Wall Street, La Jolla, CA 92037",
        "coordinates": {
            "lat": 32.8471174,
            "lng": -117.2735361
        },
        "label": "Karl Strauss La Jolla"
    },
    {
        "visited": false,
        "address": "5985 Santa Fe Street, San Diego, CA 92109",
        "coordinates": {
            "lat": 32.8320492,
            "lng": -117.2312344
        },
        "label": "Karl Strauss"
    },
    {
        "visited": false,
        "address": "9675 Scranton Rd, San Diego, CA 92121",
        "coordinates": {
            "lat": 32.896535,
            "lng": -117.2017648
        },
        "label": "Karl Strauss Sorrento Mesa"
    },
    {
        "visited": false,
        "address": "5839 Mission Gorge Road, Suite E, San Diego, CA 92120",
        "coordinates": {
            "lat": 32.7811122,
            "lng": -117.1000736
        },
        "label": "Kensington Brewing Company"
    },
    {
        "visited": false,
        "address": "7576 Clairemont Mesa Blvd., San Diego, CA 92111",
        "coordinates": {
            "lat": 32.8331085,
            "lng": -117.1563692
        },
        "label": "Kilowatt Brewing Company"
    },
    {
        "visited": false,
        "address": "6380 Del Cerro Blvd, San Diego, CA 92120",
        "coordinates": {
            "lat": 32.7840052,
            "lng": -117.0599295
        },
        "label": "KnB Brewery"
    },
    {
        "visited": false,
        "address": "842 Market St, San Diego, CA 92101",
        "coordinates": {
            "lat": 32.7117775,
            "lng": -117.1568517
        },
        "label": "Knotty Brewing Co."
    },
    {
        "visited": false,
        "address": "175 Bosstick Blvd. #104, San Marcos, CA 92069",
        "coordinates": {
            "lat": 33.1616463,
            "lng": -117.2012594
        },
        "label": "Kuracali Sake & Beer Brewery"
    },
    {
        "visited": false,
        "address": "7536 Fay Avenue, San Diego, CA 92037",
        "coordinates": {
            "lat": 32.8408148,
            "lng": -117.2743615
        },
        "label": "La Jolla Beer Co."
    },
    {
        "visited": false,
        "address": "1430 Vantage Court, Suite 104, Vista, CA 92081",
        "coordinates": {
            "lat": 33.1360651,
            "lng": -117.2248951
        },
        "label": "Latitude 33 Brewing Company"
    },
    {
        "visited": false,
        "address": "363 Airport Road Oceanside, CA 92058",
        "coordinates": {
            "lat": 33.2153901,
            "lng": -117.3507698
        },
        "label": "Legacy Brewing Company"
    },
    {
        "visited": false,
        "address": "7649 Stromesa Ct, Suite Y, San Diego, CA 92126",
        "coordinates": {
            "lat": 32.8925649,
            "lng": -117.1484446
        },
        "label": "Little Miss Brewing"
    },
    {
        "visited": false,
        "address": "10320 Camino Santa Fe, San Diego, CA 92121",
        "coordinates": {
            "lat": 32.9040608,
            "lng": -117.1714639
        },
        "label": "Longship Brewery"
    },
    {
        "visited": false,
        "address": "2002 S Coast Hwy, Oceanside, CA, 92054",
        "coordinates": {
            "lat": 33.1720729,
            "lng": -117.3591228
        },
        "label": "Mason Ale Works"
    },
    {
        "visited": false,
        "address": "255 Redel Rd, San Marcos, CA 92078",
        "coordinates": {
            "lat": 33.1358939,
            "lng": -117.1585644
        },
        "label": "Mason Ale Works"
    },
    {
        "visited": false,
        "address": "3801 Oceanic Dr, Oceanside, CA 92058",
        "coordinates": {
            "lat": 33.205154,
            "lng": -117.3046252
        },
        "label": "Midnight Jack Brewing Company"
    },
    {
        "visited": false,
        "address": "3812 Grim Avenue, San Diego, CA 92104",
        "coordinates": {
            "lat": 32.7476888,
            "lng": -117.1285434
        },
        "label": "Mike Hess Brewing"
    },
    {
        "visited": false,
        "address": "9368 Cabbot Dr, San Diego, CA 92126",
        "coordinates": {
            "lat": 32.8923805,
            "lng": -117.1447381
        },
        "label": "Mikkeller Brewing San Diego"
    },
    {
        "visited": false,
        "address": "1441 L Street, San Diego, CA 92101",
        "coordinates": {
            "lat": 32.7071477,
            "lng": -117.1515916
        },
        "label": "Mission Brewery"
    },
    {
        "visited": false,
        "address": "3725 Greenwood Street, San Diego, CA 92110",
        "coordinates": {
            "lat": 32.7542044,
            "lng": -117.2061981
        },
        "label": "Modern Times"
    },
    {
        "visited": false,
        "address": "805 16th Street, San Diego, CA 92101",
        "coordinates": {
            "lat": 32.7138573,
            "lng": -117.1492466
        },
        "label": "Monkey Paw Pub & Brewery"
    },
    {
        "visited": false,
        "address": "2055 Thibodo Road, Suite H, Vista, CA 92081",
        "coordinates": {
            "lat": 33.1677133,
            "lng": -117.2203174
        },
        "label": "Mother Earth Brew Company"
    },
    {
        "visited": false,
        "address": "11545 Sorrento Valley Road, Suite 305, San Diego, CA 92121",
        "coordinates": {
            "lat": 32.9127354,
            "lng": -117.2306057
        },
        "label": "New English Brewing Company"
    },
    {
        "visited": false,
        "address": "1485 Hollow Glen Road, Julian, CA 92036",
        "coordinates": {
            "lat": 33.0765814,
            "lng": -116.5905432
        },
        "label": "Nickel Beer Company"
    },
    {
        "visited": false,
        "address": "3038 University Ave, San Diego, CA 92104",
        "coordinates": {
            "lat": 32.7487183,
            "lng": -117.1291179
        },
        "label": "North Park Beer Co"
    },
    {
        "visited": false,
        "address": "326 N. Horne, Oceanside, CA 92054",
        "coordinates": {
            "lat": 33.1998358,
            "lng": -117.3769334
        },
        "label": "Northern Pine Brewing Company"
    },
    {
        "visited": false,
        "address": "901 Lane Av, Chula Vista, California 91914",
        "coordinates": {
            "lat": 32.6520158,
            "lng": -116.9614181
        },
        "label": "Novo Brazil Brewing Co."
    },
    {
        "visited": false,
        "address": "5041 Newport Ave, San Diego, CA 92107",
        "coordinates": {
            "lat": 32.7472201,
            "lng": -117.2519729
        },
        "label": "OB Brewery"
    },
    {
        "visited": false,
        "address": "1800 Ord Way, Oceanside, CA 92056",
        "coordinates": {
            "lat": 33.2113331,
            "lng": -117.2731069
        },
        "label": "Oceanside Ale Works"
    },
    {
        "visited": false,
        "address": "312 Via Del Norte, Oceanside, CA 92058",
        "coordinates": {
            "lat": 33.2128018,
            "lng": -117.3522371
        },
        "label": "Oceanside Brewing Company"
    },
    {
        "visited": false,
        "address": "9879 Hibert Street, Suite F, San Diego, CA 92131",
        "coordinates": {
            "lat": 32.9132595,
            "lng": -117.1127791
        },
        "label": "O'Sullivan Brother's Brewing"
    },
    {
        "visited": false,
        "address": "721 Grand Avenue, San Diego, CA 92109",
        "coordinates": {
            "lat": 32.7943249,
            "lng": -117.2553488
        },
        "label": "Pacific Beach Ale House"
    },
    {
        "visited": false,
        "address": "8665 Argent St Ste B, Santee, CA 92071",
        "coordinates": {
            "lat": 32.8328875,
            "lng": -116.9889673
        },
        "label": "Pacific Islander Beer Co."
    },
    {
        "visited": false,
        "address": "3052 El Cajon Blvd, Suite B, San Diego, CA 92104",
        "coordinates": {
            "lat": 32.7555796,
            "lng": -117.1287502
        },
        "label": "Pariah Brewing Company"
    },
    {
        "visited": false,
        "address": "2730 Gateway Road, Carlsbad, CA 92009",
        "coordinates": {
            "lat": 33.1286712,
            "lng": -117.2500668
        },
        "label": "Pizza Port Bressi Ranch"
    },
    {
        "visited": false,
        "address": "571 Carlsbad Village Drive, Carlsbad, CA 92008",
        "coordinates": {
            "lat": 33.1599094,
            "lng": -117.3477378
        },
        "label": "Pizza Port Carlsbad"
    },
    {
        "visited": false,
        "address": "1956 Bacon Street, San Diego CA 92107",
        "coordinates": {
            "lat": 32.7479652,
            "lng": -117.250302
        },
        "label": "Pizza Port Ocean Beach"
    },
    {
        "visited": false,
        "address": "135 North Highway 101, Solana Beach, 92075",
        "coordinates": {
            "lat": 32.992923,
            "lng": -117.272216
        },
        "label": "Pizza Port Solana Beach"
    },
    {
        "visited": false,
        "address": "155 E. Grand Avenue, Escondido, CA 92025",
        "coordinates": {
            "lat": 33.1219384,
            "lng": -117.0801782
        },
        "label": "Plan 9 Ale House"
    },
    {
        "visited": false,
        "address": "4494 30th Street, San Diego, CA 92116",
        "coordinates": {
            "lat": 32.7589732,
            "lng": -117.1303887
        },
        "label": "Poor House Brewing Co"
    },
    {
        "visited": false,
        "address": "155 Mata Way #104, San Marcos, CA 92069",
        "coordinates": {
            "lat": 33.1416287,
            "lng": -117.1493614
        },
        "label": "Port Brewing / The Lost Abbey"
    },
    {
        "visited": false,
        "address": "San Marcos, CA",
        "coordinates": {
            "lat": 33.1433723,
            "lng": -117.1661449
        },
        "label": "Prodigy Brewing Company"
    },
    {
        "visited": false,
        "address": "2004 E. Vista Way Vista, CA 92084",
        "coordinates": {
            "lat": 33.2304468,
            "lng": -117.2265948
        },
        "label": "Prohibition Brewing Company"
    },
    {
        "visited": true,
        "address": "8680 Miralani Dr #128, San Diego, CA 92126",
        "coordinates": {
            "lat": 32.8966532,
            "lng": -117.1372753
        },
        "label": "Protector Brewery"
    },
    {
        "visited": false,
        "address": "9030 Kenamar Dr #308 San Diego, Ca 92121",
        "coordinates": {
            "lat": 32.8866311,
            "lng": -117.1571274
        },
        "label": "Pure Project Brewing"
    },
    {
        "visited": false,
        "address": "5375 Kearny Villa Road #116, San Diego, CA 92123",
        "coordinates": {
            "lat": 32.8308894,
            "lng": -117.1384012
        },
        "label": "Quantum Brewing Co."
    },
    {
        "visited": false,
        "address": "9040 Carroll Way, Suite 8, San Diego, CA 92121",
        "coordinates": {
            "lat": 32.8880071,
            "lng": -117.1596088
        },
        "label": "Reckless Brewing Co."
    },
    {
        "visited": false,
        "address": "411 C St, San Diego, CA 92101",
        "coordinates": {
            "lat": 32.7165795,
            "lng": -117.1605885
        },
        "label": "Resident Brewing Co."
    },
    {
        "visited": false,
        "address": "1325 Grand Avenue #100, San Marcos, CA 92078",
        "coordinates": {
            "lat": 33.1427524,
            "lng": -117.1925073
        },
        "label": "Rip Current Brewing Co."
    },
    {
        "visited": false,
        "address": "8980 Villa La Jolla Drive, San Diego, CA 92037",
        "coordinates": {
            "lat": 32.8712909,
            "lng": -117.234266
        },
        "label": "Rock Bottom Brewery Restaurant La Jolla"
    },
    {
        "visited": true,
        "address": "8830 Rehco Rd. Suite D, San Diego CA 92121",
        "coordinates": {
            "lat": 32.8834869,
            "lng": -117.1717856
        },
        "label": "Rough Draft Brewing Company"
    },
    {
        "visited": false,
        "address": "5840 El Camino Real, Suite 101, Carlsbad, CA 92008",
        "coordinates": {
            "lat": 33.1345148,
            "lng": -117.2700916
        },
        "label": "Rouleur Brewing Company"
    },
    {
        "visited": false,
        "address": "10450 Friars Rd. Ste. L, San Diego, CA 92120",
        "coordinates": {
            "lat": 32.7916911,
            "lng": -117.0981184
        },
        "label": "San Diego Brewing Company"
    },
    {
        "visited": false,
        "address": "3052 El Cajon Blvd, San Diego, CA 92104",
        "coordinates": {
            "lat": 32.7555796,
            "lng": -117.1287502
        },
        "label": "San Diego Brewing Company"
    },
    {
        "visited": false,
        "address": "1080 W. San Marcos Blvd. #108, San Marcos, CA 92078",
        "coordinates": {
            "lat": 33.1344351,
            "lng": -117.1909682
        },
        "label": "San Marcos Brewery & Grill"
    },
    {
        "visited": false,
        "address": "15378 Avenue of Science #222, San Diego, CA 92128",
        "coordinates": {
            "lat": 32.9947534,
            "lng": -117.0820744
        },
        "label": "Second Chance Beer Co."
    },
    {
        "visited": false,
        "address": "780 Main St, Ramona, CA 92065",
        "coordinates": {
            "lat": 33.0436042,
            "lng": -116.8649909
        },
        "label": "Smoking Cannon Brewery"
    },
    {
        "visited": false,
        "address": "8262 Clairemont Mesa Blvd San Diego, CA 92111",
        "coordinates": {
            "lat": 32.8338579,
            "lng": -117.1463732
        },
        "label": "Societe Brewing Co."
    },
    {
        "visited": false,
        "address": "1537 30th Street, San Diego, CA 92102",
        "coordinates": {
            "lat": 32.7220418,
            "lng": -117.1298992
        },
        "label": "South Park Brewing Co."
    },
    {
        "visited": false,
        "address": "1280 Activity Dr, Vista, CA 92081",
        "coordinates": {
            "lat": 33.14194519999999,
            "lng": -117.2194286
        },
        "label": "SpecHops Brewing Co."
    },
    {
        "visited": false,
        "address": "777 Harrah's Rincon Way, Valley Center, CA 92082",
        "coordinates": {
            "lat": 33.267594,
            "lng": -116.9554387
        },
        "label": "SR76 Brewery"
    },
    {
        "visited": false,
        "address": "9550 Distribution Ave. San Diego, CA 92121",
        "coordinates": {
            "lat": 32.8804822,
            "lng": -117.1634659
        },
        "label": "Saint Archer Brewing Co."
    },
    {
        "visited": false,
        "address": "1999 Citracado Parkway, Escondido, CA 92029",
        "coordinates": {
            "lat": 33.1158112,
            "lng": -117.1200116
        },
        "label": "Stone Brewing Company"
    },
    {
        "visited": false,
        "address": "2816 Historic Decatur Rd #116, San Diego, CA 92106",
        "coordinates": {
            "lat": 32.7401545,
            "lng": -117.2111952
        },
        "label": "Stone Brewing Liberty Station"
    },
    {
        "visited": false,
        "address": "1784 La Costa Meadows Dr #103, San Marcos, CA 92078",
        "coordinates": {
            "lat": 33.1049415,
            "lng": -117.2193149
        },
        "label": "Stumblefoot Brewing Company"
    },
    {
        "visited": false,
        "address": "3176 Thorn St., San Diego, CA 92104",
        "coordinates": {
            "lat": 32.7393987,
            "lng": -117.1254989
        },
        "label": "Thorn St. Brewery"
    },
    {
        "visited": false,
        "address": "259 3rd Ave, Chula Vista, CA 91910",
        "coordinates": {
            "lat": 32.6428434,
            "lng": -117.0801667
        },
        "label": "Thr3e Punks Ales Brewing Co."
    },
    {
        "visited": false,
        "address": "8675 Miralani Dr, Suite 100, San Diego, CA 92126",
        "coordinates": {
            "lat": 32.8957913,
            "lng": -117.1374768
        },
        "label": "Thunderhawk Alements"
    },
    {
        "visited": false,
        "address": "1495 Poinsettia Avenue, Suite 148, Vista, CA 92071",
        "coordinates": {
            "lat": 33.13669730000001,
            "lng": -117.2268704
        },
        "label": "Toolbox Brewing"
    },
    {
        "visited": false,
        "address": "2201 San Dieguito Dr, Del Mar, CA 92014",
        "coordinates": {
            "lat": 32.9699356,
            "lng": -117.2617788
        },
        "label": "Viewpoint Brewing Co."
    },
    {
        "visited": false,
        "address": "326 Main Street, Vista, CA 92084",
        "coordinates": {
            "lat": 33.2031682,
            "lng": -117.2410031
        },
        "label": "Wavelength Brewing Co."
    },
    {
        "visited": false,
        "address": "9495 Candida Street, San Diego, CA 92126",
        "coordinates": {
            "lat": 32.8957219,
            "lng": -117.1213738
        },
        "label": "White Labs"
    },
    {
        "visited": false,
        "address": "692 Rancheros Dr, San Marcos, CA 92069",
        "coordinates": {
            "lat": 33.140147,
            "lng": -117.145759
        },
        "label": "Wild Barrel Brewing"
    },
    {
        "visited": false,
        "address": "5840 El Camino Real, Suite 100, Carlsbad, CA 92008",
        "coordinates": {
            "lat": 33.1345148,
            "lng": -117.2700916
        },
        "label": "Wiseguy Brewing Co."
    }
]